from_section,to_section,latitude,longitude,label
Northwest Territories,Nunavut,65.0116609,-109.7209871,unnamed [secondary]
Alberta,Saskatchewan,48.9996924,-109.9980409,unnamed [track]
Ontario,Québec,45.4590887,-75.7038590,Rue Jacques-Cartier [residential]
Ontario,Québec,45.4464322,-75.7164493,Rue Bériault [residential]
Ontario,Québec,45.4590321,-75.7001681,Rue Bruyère [residential]
Ontario,Québec,45.4589995,-75.7012762,Rue Cousineau [residential]
Ontario,Québec,45.4329682,-75.7311940,Rue Crémazie [residential]
Ontario,Québec,45.4329701,-75.7321948,Rue Lois [residential]
Ontario,Québec,45.4318256,-75.7316160,unnamed [service]
Ontario,Québec,45.4288653,-75.7338040,Rue Saint-Jean-Bosco [residential]
Ontario,Québec,45.4262229,-75.7370943,Promenade du Lac-des-Fées [tertiary]
Ontario,Québec,45.4267494,-75.7361464,Rue Lavigne [residential]
Ontario,Québec,45.4274762,-75.7363816,Rue Bienville [residential]
Ontario,Québec,45.4281446,-75.7343888,Rue Booth [residential]
Ontario,Québec,45.4254214,-75.7382698,Rue Boucherville [residential]
Ontario,Québec,45.4242930,-75.7385610,Rue Chateaubriand [residential]
Ontario,Québec,45.4232446,-75.7394629,Rue de la Coopération [residential]
Ontario,Québec,45.3878469,-75.8306480,Rue du Riesling [residential]
Ontario,Québec,45.3891684,-75.8311122,Rue du Buzet [residential]
Ontario,Québec,45.3884268,-75.8287503,Rue du Buzet [residential]
Ontario,Québec,45.3882782,-75.8261418,Rue Walter-Herbert [residential]
Ontario,Québec,45.3890671,-75.8245021,Rue Bellevue [residential]
Ontario,Québec,45.3875553,-75.8374220,Rue Glenholm [residential]
Ontario,Québec,45.3884726,-75.8455267,Rue Woods [residential]
Ontario,Québec,45.3864710,-75.8376988,Rue Oakwood [residential]
Ontario,Québec,45.3865131,-75.8387574,Rue Butternut [residential]
Ontario,Québec,45.3868189,-75.8398366,Rue Saratoga [residential]
Ontario,Québec,45.3878789,-75.8434088,Rue René-Thérien [residential]
Ontario,Québec,45.3883123,-75.8444296,Rue Lortie [residential]
Ontario,Québec,45.3872880,-75.8472608,Rue Chartrand [residential]
Ontario,Québec,45.3892204,-75.8466262,Rue Chartrand [residential]
Ontario,Québec,45.3877620,-75.8484476,Rue Riverview [residential]
Ontario,Québec,45.4191120,-75.7432555,Rue Coallier [residential]
Ontario,Québec,45.3885678,-75.8120077,Chemin Maple Grove [residential]
Ontario,Québec,45.3889899,-75.8097129,Chemin Garden [residential]
Ontario,Québec,45.3900651,-75.8053810,Chemin Vanier [tertiary]
Ontario,Québec,45.3897245,-75.8151813,Rue Guilford-Booth [residential]
Ontario,Québec,45.3890854,-75.8143457,Rue Gérald-Dubois [residential]
Ontario,Québec,45.3918560,-75.8074582,Promenade Lakeview [residential]
Ontario,Québec,45.3920845,-75.7994642,Promenade Crescent [residential]
Ontario,Québec,45.3912415,-75.7982322,Chemin Robert-Stewart [residential]
Ontario,Québec,45.3924390,-75.7967548,Rue Jean-Gascon [residential]
Manitoba,Saskatchewan,49.2664216,-101.3876419,PR 445 [secondary]
Ontario,Québec,45.6347373,-74.5987218,Rue Principale [tertiary]
Alberta,British Columbia,49.5507270,-114.6812131,Ptolemy Pass Trail [track]
Alberta,British Columbia,49.6310917,-114.6991536,unnamed [track]
Alberta,British Columbia,49.5725950,-114.7299480,Tent Mountain Pass Trail [track]
Alberta,British Columbia,49.5728425,-114.7194782,unnamed [track]
Alberta,British Columbia,49.9231064,-114.6856432,North Fork Pass Trail [track]
New Brunswick,Québec,47.8969466,-66.9543033,Chemin Riverside [unclassified]
Nova Scotia,Nova Scotia,45.737930,-62.689158,Caribou Terminal [ferry]
Prince Edward Island,Prince Edward Island,45.954223,-62.748748,Wood Islands Terminal [ferry]
British Columbia,Yukon,59.9951122,-128.5511500,BC 97 [trunk]
British Columbia,Yukon,59.9957049,-134.6677819,YK 2 [trunk]
Alberta,British Columbia,56.3165430,-120.0005855,64 [primary]
Alberta,British Columbia,56.0143463,-119.9990095,Township Road 812 [unclassified]
Alberta,British Columbia,56.5242090,-119.9959093,unnamed [unclassified]
Alberta,British Columbia,56.6610287,-120.0008193,unnamed [unclassified]
Alberta,British Columbia,56.6697328,-119.9970923,unnamed [unclassified]
Alberta,British Columbia,56.2173657,-119.9981599,Township Road 834 [tertiary]
Alberta,British Columbia,56.1592874,-119.9968971,Township Road 830 [unclassified]
Alberta,British Columbia,56.1882692,-119.9974425,717 [secondary]
Alberta,British Columbia,55.0387509,-119.9994171,unnamed [unclassified]
Alberta,British Columbia,55.2578191,-119.9961762,671 [secondary]
Alberta,British Columbia,55.7813052,-120.0000039,Township Road 784 [unclassified]
Alberta,British Columbia,55.0224126,-119.9985775,unnamed [unclassified]
Alberta,British Columbia,55.0728893,-119.9984378,unnamed [unclassified]
Alberta,British Columbia,55.0771075,-120.0011750,unnamed [unclassified]
Alberta,British Columbia,55.5485920,-119.9978337,unnamed [unclassified]
Alberta,British Columbia,55.6213453,-119.9988547,Township Road 765 [unclassified]
Alberta,British Columbia,55.4794376,-119.9937725,43 [trunk]
Alberta,British Columbia,55.9561784,-119.9959791,unnamed [unclassified]
Alberta,British Columbia,55.8105757,-119.9990166,Township Road 785 [unclassified]
Alberta,British Columbia,55.8615740,-119.9969849,Township Road 793A [unclassified]
Alberta,British Columbia,55.9270828,-119.9997791,Township Road 802 [unclassified]
Alberta,British Columbia,55.6068186,-119.9988841,Township Road 764 [unclassified]
Alberta,British Columbia,55.0910386,-119.9994999,unnamed [unclassified]
Alberta,British Columbia,54.9984287,-119.9972376,unnamed [tertiary]
Alberta,British Columbia,49.6303527,-114.6914614,unnamed [unclassified]
Alberta,British Columbia,49.6470265,-114.6806914,Phillipps Pass Road [track]
Alberta,British Columbia,49.6318369,-114.6868383,unnamed [unclassified]
Alberta,British Columbia,49.6320906,-114.6798729,unnamed [unclassified]
Alberta,Saskatchewan,52.7541163,-110.0020863,Township Road 440 [unclassified]
Alberta,Saskatchewan,51.2414663,-110.0012786,Township Road 264 [unclassified]
Alberta,Saskatchewan,50.1553247,-110.0007830,unnamed [unclassified]
Ontario,Québec,48.1464267,-79.5209894,66 [trunk]
New Brunswick,Québec,47.3102335,-69.0025112,2e Rang [unclassified]
New Brunswick,Québec,47.3745063,-68.7254293,Route du Lac-Baker [tertiary]
New Brunswick,Québec,47.3725021,-68.7374543,289 [primary]
New Brunswick,Québec,47.4926319,-68.4781792,unnamed [track]
New Brunswick,Québec,47.8698122,-68.3751150,unnamed [unclassified]
New Brunswick,Québec,47.4168476,-68.6085532,11e Rang [unclassified]
New Brunswick,Québec,47.3809500,-68.7122588,Route des Chalets [tertiary]
New Brunswick,Québec,47.4892128,-68.4841939,Avenue de la Madawaska [tertiary]
Ontario,Québec,46.3645273,-78.7301929,656 [tertiary]
Ontario,Québec,46.2363121,-77.9965693,unnamed [track]
Ontario,Québec,46.2653854,-78.1682578,unnamed [track]
Ontario,Québec,46.2693852,-78.1771481,unnamed [track]
Ontario,Québec,46.3649508,-78.7317441,Laurentian Crescent [residential]
Ontario,Québec,46.3669427,-78.7318509,Laurentian Crescent [residential]
Ontario,Québec,46.2644421,-78.1394008,unnamed [track]
Ontario,Québec,46.2717785,-78.2406211,unnamed [track]
Ontario,Québec,46.2646787,-78.1481909,unnamed [track]
Ontario,Québec,45.3238652,-74.4753031,CR 25 [tertiary]
Ontario,Québec,45.6349950,-74.8959914,CR 15 [secondary]
Ontario,Québec,45.6367837,-74.9329597,CR 24 [secondary]
Ontario,Québec,45.3911045,-74.4547075,Gore Road [residential]
Ontario,Québec,45.5273511,-74.4106534,Chemin Domaine Road [unclassified]
Ontario,Québec,45.3491196,-74.4686678,Concession Road 10 [unclassified]
Ontario,Québec,45.6321932,-74.7892239,Du Domaine Road [residential]
Ontario,Québec,45.6334068,-74.8031844,Du Domaine Road [residential]
Ontario,Québec,45.5085943,-74.4177022,Chemin Concession 3 Road [unclassified]
Ontario,Québec,45.3559785,-74.4620100,McIntee Road [unclassified]
Ontario,Québec,45.6372240,-74.9402097,Presqu'ile Road [residential]
Ontario,Québec,45.4270436,-74.4408125,CR 18 [secondary]
Ontario,Québec,45.3471052,-74.4673778,Don Boudria Road [track]
Ontario,Québec,45.4619044,-74.4298779,Chemin de la Grande Montée Road [tertiary]
Ontario,Québec,45.4606481,-74.4285949,Chemin Concession 7 Road [tertiary]
Ontario,Québec,45.4904180,-74.4202438,Chemin Concession 5 Road [unclassified]
Ontario,Québec,45.4913145,-74.4195566,CR 10 [secondary]
Alberta,British Columbia,49.6300075,-114.6900187,3 [trunk]
Ontario,Québec,45.5848958,-74.4337313,Montée Saint-Philippe [tertiary]
Newfoundland,Newfoundland,51.204193,-56.774574,Blanc-Sablon terminal [ferry]
Quebec,Quebec,51.415731,-57.152123,Sainte-Barbe terminal [ferry]
Ontario,Québec,45.4596059,-75.6997105,Boulevard Gréber [secondary]
Ontario,Québec,45.4410753,-75.7218996,5 [motorway]
Ontario,Québec,45.4403457,-75.7240387,Rue Saint-Rédempteur [secondary]
Ontario,Québec,45.4603367,-75.6999452,Boulevard Gréber [secondary]
Ontario,Québec,45.4203962,-75.7416380,unnamed [service]
Ontario,Québec,45.4180696,-75.7439901,Rue Bourget [residential]
Ontario,Québec,45.4620284,-75.6954532,Rue de la Baie [residential]
Ontario,Québec,45.8853445,-76.9174238,Gervais Road [unclassified]
Ontario,Québec,45.8101641,-76.7830401,CR 50 [secondary]
Ontario,Québec,45.8592221,-76.7871941,Coulonge Lake Trail [unclassified]
Ontario,Québec,45.7985036,-76.7790650,CR 49 [secondary]
Ontario,Québec,45.8353505,-76.7822934,Bromley Line [residential]
Ontario,Québec,45.8612903,-76.7856163,Orvilles Trail [unclassified]
Ontario,Québec,45.8398366,-76.7800015,Lacroix Bay Road [residential]
Ontario,Québec,45.8458930,-76.7799561,Lacroix Bay Road [residential]
Ontario,Québec,45.4562245,-75.7053498,Promenade du Lac-Leamy [service]
Alberta,Saskatchewan,53.2807246,-109.9997034,47 Street [residential]
Alberta,Saskatchewan,53.2724990,-109.9993538,38 Street [residential]
Alberta,Saskatchewan,53.2715885,-109.9997401,37 Street [residential]
Alberta,Saskatchewan,53.2734002,-109.9997329,39 Street [residential]
Alberta,Saskatchewan,53.2789107,-109.9981967,45 Street [residential]
Ontario,Québec,45.4298839,-75.7340864,Rue De Lorimier [residential]
Alberta,Saskatchewan,53.3657397,-110.0025091,Township Road 510 [unclassified]
Alberta,Saskatchewan,53.3952701,-110.0023654,Township Road 512 [unclassified]
Alberta,Saskatchewan,53.0742333,-110.0010674,Township 474 Road [unclassified]
Ontario,Québec,45.4783187,-75.6258923,Rue de Versailles [residential]
Ontario,Québec,45.4789562,-75.6064292,unnamed [service]
Ontario,Québec,45.4813339,-75.6042162,unnamed [service]
Ontario,Québec,45.4799196,-75.6093902,Rue Campeau [residential]
Alberta,Saskatchewan,49.6716740,-110.0013098,unnamed [unclassified]
Alberta,British Columbia,55.8979488,-119.9966295,Road 218 [residential]
Prince Edward Island,Prince Edward Island,46.349333,-62.251175,Souris ferry terminal [ferry]
Quebec,Quebec,47.381240,-61.855047,Cap-aux-Meules ferry terminal [ferry]
British Columbia,Yukon,59.9941313,-133.7942483,Atlin Highway [primary]
Alberta,British Columbia,52.8879682,-118.4788279,YH 16 [trunk]
Manitoba,Ontario,49.7387412,-95.1576564,PTH 1 [trunk]
Ontario,Québec,45.8168074,-77.0741811,unnamed [residential]
Ontario,Québec,45.8274641,-77.1072412,William Street [residential]
Ontario,Québec,45.8061597,-77.0434551,148 [primary]
Ontario,Québec,45.8249336,-77.1021439,Catherine Street [residential]
Ontario,Québec,45.8276262,-77.1055072,Peter Street [residential]
Ontario,Québec,45.8251619,-77.0979554,Esther Street [residential]
Ontario,Québec,45.8229159,-77.0938605,Rosewood Avenue [residential]
Ontario,Québec,45.8261438,-77.1081701,Maple Avenue [residential]
Ontario,Québec,45.8165422,-77.0731696,Burns Drive [residential]
Ontario,Québec,45.7959745,-77.0218367,Forest Park Road [residential]
Ontario,Québec,45.8211964,-77.0883710,Apple Blossom Drive [residential]
Ontario,Québec,45.8236101,-77.0950398,Clemow Avenue [residential]
Ontario,Québec,45.8254808,-77.1034978,Cecelia Street [residential]
Ontario,Québec,45.8217581,-77.0863250,Angus Campbell Drive [residential]
Ontario,Québec,45.8233809,-77.0977242,Herbert Street [residential]
Ontario,Québec,45.8288370,-77.1074173,Nelson Street [residential]
Ontario,Québec,45.8234455,-77.1002144,Fraser Street [residential]
Ontario,Québec,45.8242634,-77.0964387,Alfred Street [residential]
Ontario,Québec,45.8267615,-77.1030326,Supple Street [residential]
Ontario,Québec,45.8292160,-77.1108067,Joseph Street [residential]
Ontario,Québec,45.8295606,-77.1115058,unnamed [service]
Ontario,Québec,46.7176613,-79.1038498,Promenade du Lac [residential]
Ontario,Québec,46.6619966,-79.0497988,R0852 [tertiary]
Ontario,Québec,46.6708869,-79.0662063,R0852 [tertiary]
Ontario,Québec,46.8557742,-79.2049522,101 [primary]
Ontario,Québec,46.8856655,-79.2459141,101 [primary]
Ontario,Québec,46.7689583,-79.1309336,Chemin du Boom-Camp [unclassified]
Ontario,Québec,47.6907732,-79.5124174,Chemin du Petit-Nédélec Nord [unclassified]
Ontario,Québec,47.6660598,-79.5142398,Chemin de Belle-Vallée [residential]
Ontario,Québec,46.7183488,-79.1043609,Rue de la Marina [residential]
Ontario,Québec,46.8513129,-79.1952299,Chemin Cedar Pine [tertiary]
Ontario,Québec,46.2651003,-78.2976802,unnamed [service]
Alberta,British Columbia,51.2338510,-116.0468202,93 [primary]
Ontario,Québec,45.5268508,-76.4613042,Chemin de Bristol [residential]
Ontario,Québec,45.5202262,-76.4274802,Chemin Wharf [residential]
Ontario,Québec,45.5191370,-76.4264729,Rue Grantham [residential]
Manitoba,Saskatchewan,51.5609406,-101.6053387,Ski Hill Road [unclassified]
Manitoba,Saskatchewan,51.6803987,-101.6132365,unnamed [track]
Manitoba,Saskatchewan,51.6519888,-101.6117841,unnamed [unclassified]
Manitoba,Saskatchewan,51.6486816,-101.6123272,unnamed [unclassified]
Manitoba,Saskatchewan,51.6363041,-101.6101600,57 [primary]
Manitoba,Saskatchewan,51.8517812,-101.6283184,unnamed [unclassified]
Manitoba,Saskatchewan,51.7935763,-101.6284047,unnamed [unclassified]
Manitoba,Saskatchewan,51.8226812,-101.6288391,unnamed [unclassified]
Manitoba,Saskatchewan,51.7768526,-101.6235668,unnamed [track]
Manitoba,Saskatchewan,51.9465146,-101.6361656,unnamed [unclassified]
Manitoba,Saskatchewan,51.8809001,-101.6311347,49 [primary]
Manitoba,Saskatchewan,51.9685845,-101.6451621,unnamed [unclassified]
Manitoba,Saskatchewan,51.9245616,-101.6377030,unnamed [unclassified]
Manitoba,Saskatchewan,51.9085208,-101.6361542,unnamed [track]
Manitoba,Saskatchewan,51.9979517,-101.6451905,unnamed [unclassified]
Alberta,Saskatchewan,52.5618089,-109.9999697,17 [primary]
Manitoba,Saskatchewan,51.1183778,-101.5625531,unnamed [track]
Manitoba,Saskatchewan,51.0808392,-101.5621433,381 [secondary]
Manitoba,Saskatchewan,51.0650012,-101.5571572,unnamed [track]
Manitoba,Saskatchewan,51.0218765,-101.5551552,unnamed [unclassified]
Manitoba,Saskatchewan,51.0366553,-101.5558845,unnamed [track]
Manitoba,Saskatchewan,51.1104234,-101.5586193,unnamed [track]
Manitoba,Saskatchewan,51.0071851,-101.5507738,unnamed [unclassified]
Manitoba,Saskatchewan,51.2282635,-101.5719690,10 [primary]
Manitoba,Saskatchewan,51.1397930,-101.5664248,unnamed [unclassified]
Manitoba,Saskatchewan,51.1841028,-101.5664986,unnamed [unclassified]
Manitoba,Saskatchewan,51.2429754,-101.5741212,unnamed [unclassified]
Manitoba,Saskatchewan,51.1693725,-101.5664041,unnamed [unclassified]
Manitoba,Saskatchewan,51.2134388,-101.5710573,unnamed [unclassified]
Manitoba,Saskatchewan,51.1988388,-101.5664697,unnamed [unclassified]
Manitoba,Saskatchewan,51.3607704,-101.5835281,unnamed [unclassified]
Manitoba,Saskatchewan,51.4197080,-101.5915827,unnamed [unclassified]
Manitoba,Saskatchewan,51.3460704,-101.5823761,unnamed [unclassified]
Manitoba,Saskatchewan,51.4040864,-101.5891743,unnamed [track]
Manitoba,Saskatchewan,51.2652174,-101.5776294,unnamed [unclassified]
Manitoba,Saskatchewan,51.4727468,-101.5944930,unnamed [track]
Manitoba,Saskatchewan,51.4344263,-101.5902193,unnamed [track]
Manitoba,Saskatchewan,51.3313345,-101.5823631,unnamed [track]
Manitoba,Saskatchewan,51.4528899,-101.5941294,unnamed [unclassified]
Manitoba,Saskatchewan,51.4639473,-101.5980635,unnamed [unclassified]
Manitoba,Saskatchewan,51.4059315,-101.5903346,5 [primary]
Ontario,Québec,45.5171884,-76.2289702,Chemin Ferry [tertiary]
Ontario,Québec,45.5026276,-76.2445709,Chemin Boom [unclassified]
Ontario,Québec,45.5166821,-76.0548276,Avenue des Peupliers [residential]
Ontario,Québec,45.5173695,-76.0546563,Chemin des Pins [residential]
Ontario,Québec,45.5176766,-76.0529171,Chemin de la Baie [unclassified]
Ontario,Québec,45.5134363,-76.0438567,Chemin Julie [unclassified]
Ontario,Québec,45.5058811,-76.0325962,Chemin de la Pointe-aux-Roches [residential]
Manitoba,Saskatchewan,50.8009534,-101.5345138,unnamed [unclassified]
Manitoba,Saskatchewan,50.0635549,-101.4635773,1 [trunk]
Manitoba,Saskatchewan,50.0194252,-101.4572045,unnamed [unclassified]
Manitoba,Saskatchewan,50.1079768,-101.4702544,unnamed [service]
Manitoba,Saskatchewan,50.0784616,-101.4636841,unnamed [unclassified]
Ontario,Québec,45.5298790,-76.1486288,Chemin Stanley [unclassified]
Ontario,Québec,45.5397715,-76.4978210,Chemin Zion [unclassified]
Ontario,Québec,45.5307643,-76.4751456,Chemin Front [tertiary]
Ontario,Québec,45.5231498,-76.1873443,unnamed [unclassified]
Ontario,Québec,45.5227793,-76.1967679,Chemin Russell [unclassified]
Nova Scotia,Nova Scotia,44.661195,-65.757665,Digby Ferry Terminal [ferry]
New Brunswick,New Brunswick,45.254742,-66.063124,St John Ferry terminal [ferry]
Manitoba,Saskatchewan,50.1374006,-101.4701896,unnamed [tertiary]
Manitoba,Saskatchewan,50.2111040,-101.4753765,unnamed [unclassified]
Manitoba,Saskatchewan,50.2405342,-101.4802913,703 [tertiary]
Manitoba,Saskatchewan,50.1521047,-101.4718726,unnamed [track]
Manitoba,Saskatchewan,53.7355653,-101.8080270,9 [primary]
Ontario,Québec,45.3888394,-75.8279211,Rue Eastern [residential]
Ontario,Québec,45.3908302,-75.8212784,Chemin Foley [residential]
Ontario,Québec,45.3894090,-75.8222214,Chemin Cochrane [residential]
Manitoba,Saskatchewan,49.1626570,-101.3787143,Township Road 25 [track]
Manitoba,Saskatchewan,49.1478501,-101.3781250,Township Road 24 [unclassified]
Manitoba,Saskatchewan,49.1778093,-101.3830950,18 [primary]
Manitoba,Saskatchewan,54.7123348,-101.8993096,unnamed [unclassified]
Manitoba,Saskatchewan,54.6581559,-101.8932915,unnamed [tertiary]
Manitoba,Saskatchewan,54.7553822,-101.9024042,unnamed [residential]
Manitoba,Saskatchewan,54.7587874,-101.9021169,unnamed [service]
Manitoba,Saskatchewan,54.7524502,-101.9019426,167 [primary]
Manitoba,Saskatchewan,54.7559171,-101.9022387,unnamed [service]
Manitoba,Saskatchewan,54.7577963,-101.9022340,1 Street West [residential]
Manitoba,Saskatchewan,54.7613676,-101.9042912,106 [primary]
Ontario,Québec,45.4807360,-76.2684877,Chemin du Canal [unclassified]
Ontario,Québec,45.4918837,-76.2552830,Chemin de la Pointe-Indienne [residential]
Manitoba,Saskatchewan,54.7550387,-101.9010306,Elander Avenue [residential]
Alberta,British Columbia,50.5820145,-115.0675990,Elk Pass Hydroline Trail [track]
Ontario,Québec,45.5956297,-74.4642666,344 [secondary]
Manitoba,Ontario,49.7968803,-95.1582678,PR 312 [secondary]
Ontario,Québec,45.4377422,-75.7266311,50;148 [motorway]
Ontario,Québec,45.4293595,-75.7333669,Boulevard Saint-Joseph [secondary]
Ontario,Québec,45.4281200,-75.7356997,Rue Scott [residential]
Ontario,Québec,45.4313797,-75.7322455,Rue Lois [residential]
New Brunswick,Québec,47.7713512,-68.3798694,unnamed [unclassified]
New Brunswick,Québec,47.9955567,-67.8491203,unnamed [unclassified]
New Brunswick,Québec,47.9966049,-67.9592382,unnamed [unclassified]
New Brunswick,Québec,47.9151634,-66.9388690,Chemin Restigouche River Road [tertiary]
New Brunswick,Québec,47.9519116,-66.9482481,Chemin Restigouche River Road [tertiary]
New Brunswick,Québec,47.9752347,-66.9275670,Chemin Restigouche River Road [tertiary]
New Brunswick,Québec,47.9790109,-66.9226808,Chemin Restigouche River Road [tertiary]
Ontario,Québec,45.5217188,-76.4318045,Chemin River [tertiary]
Ontario,Québec,45.4054677,-75.7550402,Champlain Bridge [primary]
Ontario,Québec,45.4703160,-75.6759804,Rue Jacques-Cartier [tertiary]
Ontario,Québec,45.5894299,-76.6519702,303 [secondary]
Nova Scotia,Nova Scotia,46.210727,-60.243799,North Sydney Terminal Ferry [ferry]
Newfoundland,Newfoundland,47.579606,-59.141505,Port aux Basques Ferry Terminal [ferry]
Ontario,Québec,45.2587749,-74.3994357,Chemin de la Rivière-Beaudette [tertiary]
Ontario,Québec,45.2342486,-74.3666260,Chemin de la Rivière-Beaudette [tertiary]
Ontario,Québec,48.5258748,-79.5235351,101 [primary]
Ontario,Québec,45.6431004,-74.6864510,148 [primary]
Ontario,Québec,45.3933097,-75.7918225,Boulevard de Lucerne [secondary]
New Brunswick,Québec,47.9263320,-67.0800064,Chemin de la Rivière [unclassified]
New Brunswick,Québec,47.4620449,-68.5108434,Chemin Rang 2 [unclassified]
New Brunswick,Québec,47.6148804,-68.3772979,unnamed [unclassified]
New Brunswick,Québec,47.6526758,-68.3767358,unnamed [unclassified]
New Brunswick,Québec,47.6390231,-68.3793522,unnamed [unclassified]
New Brunswick,Nova Scotia,45.8534449,-64.2594994,Cumberland Loop [unclassified]
New Brunswick,Nova Scotia,45.8523472,-64.2599235,unnamed [service]
New Brunswick,Nova Scotia,45.8753636,-64.2477697,Mount Whatley Road [residential]
New Brunswick,Nova Scotia,45.8546347,-64.2589450,NS 104;TCH [motorway]
New Brunswick,Nova Scotia,45.9785984,-64.0516226,NB 970 [secondary]
Nova Scotia,Nova Scotia,46.210635,-60.243716,North Sydney [ferry]
Newfoundland,Newfoundland,47.290009,-53.992354,Argentia Ferry [ferry]
British Columbia,Yukon,59.9991618,-130.3092136,unnamed [residential]
British Columbia,Yukon,59.9945722,-132.1178169,YK 1 [trunk]
Ontario,Québec,45.4217421,-75.7401432,unnamed [service]
Ontario,Québec,45.4212155,-75.7408712,unnamed [service]
Ontario,Québec,45.5972525,-74.4954184,344 [secondary]
Alberta,Saskatchewan,53.0444556,-109.9998218,688 [tertiary]
Alberta,Saskatchewan,53.0160781,-109.9989135,Township 470 Road [unclassified]
Alberta,Saskatchewan,53.1033333,-110.0017999,770 [tertiary]
Alberta,Saskatchewan,53.1178299,-110.0010967,Township 480a Road [unclassified]
Alberta,Saskatchewan,53.1615652,-110.0004778,Township 484 Road [unclassified]
Alberta,Saskatchewan,53.1906870,-110.0009811,Township Road 490 [unclassified]
Alberta,Saskatchewan,53.2197984,-110.0010997,Township 492 Road [unclassified]
Alberta,Saskatchewan,53.2698486,-109.9999056,Barr Crescent [residential]
Alberta,Saskatchewan,53.2690096,-109.9999143,Barr Crescent [residential]
Alberta,Saskatchewan,53.2574957,-109.9990526,23 Street [residential]
Alberta,Saskatchewan,53.2589226,-110.0002120,24 Street [residential]
Alberta,Saskatchewan,53.2596535,-110.0004770,25 Street [secondary]
Alberta,Saskatchewan,53.2607373,-109.9999893,26 Street [residential]
Alberta,Saskatchewan,53.2617400,-109.9999991,27 Street [residential]
Alberta,Saskatchewan,53.2639800,-109.9990580,29 Street [residential]
Alberta,Saskatchewan,53.2648167,-110.0000558,30 Street [residential]
Alberta,Saskatchewan,53.2656512,-110.0000464,31 Street [residential]
Alberta,Saskatchewan,53.2676386,-109.9990566,32 Street [tertiary]
Alberta,Saskatchewan,53.2751986,-109.9993677,41 Street [tertiary]
Alberta,Saskatchewan,53.2761060,-109.9997075,42 Street [residential]
Alberta,Saskatchewan,53.2771046,-109.9989550,43 Street [residential]
Alberta,Saskatchewan,53.2852288,-109.9984423,52 Street [secondary]
Alberta,Saskatchewan,53.2861624,-109.9989774,53 Street [residential]
Alberta,Saskatchewan,53.4243656,-110.0011551,798 [tertiary]
Alberta,Saskatchewan,53.4463269,-109.9968514,Township Road 515a [unclassified]
Alberta,Saskatchewan,53.4475955,-109.9996714,17 [primary]
Alberta,Saskatchewan,53.4494862,-109.9996802,17 [primary]
Alberta,Saskatchewan,53.3362372,-110.0006088,774 [tertiary]
Alberta,Saskatchewan,53.5638223,-109.9991290,17 [primary]
Alberta,Saskatchewan,53.5751923,-110.0006761,17 [primary]
Alberta,Saskatchewan,53.6232433,-109.9992382,797;TCT [tertiary]
Alberta,Saskatchewan,53.7168864,-109.9975238,unnamed [unclassified]
Alberta,Saskatchewan,52.6959488,-109.9979765,unnamed [unclassified]
Alberta,Saskatchewan,52.9578554,-110.0026475,Unwin Road [unclassified]
Alberta,Saskatchewan,53.5407677,-110.0025690,Township Road 530 [unclassified]
Ontario,Québec,45.5440678,-76.5294204,Chemin Front [tertiary]
Ontario,Québec,45.5461677,-76.5622099,Chemin de Sand Bay [unclassified]
Manitoba,Saskatchewan,49.7982562,-101.4374426,unnamed [track]
Manitoba,Saskatchewan,49.8277404,-101.4436468,unnamed [unclassified]
Manitoba,Saskatchewan,49.8089396,-101.4404308,unnamed [unclassified]
Manitoba,Saskatchewan,49.9750385,-101.4587195,unnamed [unclassified]
Manitoba,Saskatchewan,49.8866401,-101.4446876,unnamed [unclassified]
Manitoba,Saskatchewan,49.9899195,-101.4571822,unnamed [track]
Manitoba,Saskatchewan,49.9161507,-101.4508980,unnamed [unclassified]
Manitoba,Saskatchewan,49.9602895,-101.4583322,unnamed [unclassified]
Manitoba,Saskatchewan,49.7541622,-101.4375069,unnamed [unclassified]
Manitoba,Saskatchewan,49.9308368,-101.4506512,unnamed [unclassified]
Manitoba,Saskatchewan,49.8908517,-101.4479416,unnamed [unclassified]
Manitoba,Saskatchewan,49.8424563,-101.4441181,48 [primary]
Ontario,Québec,45.4944690,-76.0142409,Avenue des Quatre-Saisons [residential]
Ontario,Québec,45.6295188,-74.5927527,Rue Elm [residential]
Ontario,Québec,45.6346989,-74.6000532,Rue de la Montagne [residential]
Ontario,Québec,45.5413249,-76.5131783,unnamed [service]
Ontario,Québec,45.5394987,-76.5087525,unnamed [service]
Ontario,Québec,45.5300000,-76.4735361,unnamed [service]
Ontario,Québec,45.5253975,-76.4551956,Chemin de Pine Lodge [unclassified]
Ontario,Québec,45.5101664,-76.0385906,Chemin Tremblay [unclassified]
Ontario,Québec,45.8926100,-76.8898068,unnamed [track]
Ontario,Québec,45.5911059,-74.4477331,Montée Byrne [unclassified]
Ontario,Québec,45.5950473,-74.4597982,Montée Cushing [unclassified]
Ontario,Québec,45.5805809,-74.4137881,Montée Robert [unclassified]
Ontario,Québec,45.5412656,-74.4006799,Chemin Concession 1 Road [unclassified]
Ontario,Québec,46.8857646,-79.2433020,unnamed [track]
Ontario,Québec,46.8802127,-79.2353923,unnamed [track]
Ontario,Québec,46.8627486,-79.2152694,unnamed [track]
Ontario,Québec,46.8594281,-79.2100313,unnamed [track]
Ontario,Québec,45.5283452,-76.1617954,unnamed [service]
Ontario,Québec,45.5284588,-76.1604299,unnamed [service]
Manitoba,Saskatchewan,49.0443028,-101.3713322,Township Road 13 [unclassified]
Ontario,Québec,45.2909163,-74.4419840,Chemin Saint-Georges [secondary]
Ontario,Québec,45.3023295,-74.4550170,Chemin du Petit-Saint-Patrice [tertiary]
Ontario,Québec,45.2663625,-74.4094227,Chemin de la Rivière-Beaudette [tertiary]
Ontario,Québec,45.2976701,-74.4527055,Rue Principale [residential]
Ontario,Québec,45.2639189,-74.4070076,Montée Cross [residential]
Ontario,Québec,45.2780916,-74.4220931,340 [secondary]
Ontario,Québec,45.3050099,-74.4647096,8e Rang [tertiary]
Ontario,Québec,45.3218544,-74.4754847,CR 23 [secondary]
Ontario,Québec,45.3787663,-74.4558001,CR 10 [secondary]
Ontario,Québec,45.5323558,-76.4797047,unnamed [track]
Ontario,Québec,45.5292047,-76.4720516,unnamed [service]
Alberta,Saskatchewan,49.9572345,-110.0001418,1 [trunk]
Ontario,Québec,45.6228473,-74.9935759,Chemin Asa-Cooke [residential]
Ontario,Québec,45.6228178,-74.9946682,Chemin Servant [residential]
Ontario,Québec,45.6414216,-74.7134974,Rue McEvoy [unclassified]
Ontario,Québec,45.6530863,-74.6333158,Chemin du Panorama [unclassified]
Ontario,Québec,45.6507464,-74.6353082,Rue des Érables [residential]
Ontario,Québec,45.6199054,-74.5663549,Montée Crooks [residential]
Ontario,Québec,45.6164459,-74.5685876,Rue des Arpents-Verts [residential]
Ontario,Québec,45.6057746,-74.5261723,Montée Stonefield [unclassified]
Ontario,Québec,45.6226303,-74.5774503,Place de Grenville Nord [residential]
Ontario,Québec,45.6217994,-74.5731443,Rue Baillargeon [residential]
Ontario,Québec,45.6258986,-74.5860630,Rue Queen [residential]
Ontario,Québec,45.5937733,-75.0774666,Chemin de la Grande-Presqu'île [unclassified]
Ontario,Québec,45.6151801,-75.0087295,Rue David [residential]
Ontario,Québec,45.6149022,-75.0107106,Rue Saint-Julien [residential]
Manitoba,Saskatchewan,50.9040676,-101.5408579,unnamed [unclassified]
Manitoba,Saskatchewan,50.9336006,-101.5421290,unnamed [unclassified]
Manitoba,Saskatchewan,50.7881512,-101.5320597,unnamed [unclassified]
Manitoba,Saskatchewan,50.8452051,-101.5368286,unnamed [unclassified]
Alberta,Northwest Territories,60.0010225,-111.8683087,Pelican Street [tertiary]
Alberta,Northwest Territories,60.0013386,-111.8728462,Portage Avenue [secondary]
Alberta,Northwest Territories,59.9987648,-111.8418043,Primrose Lane [residential]
Alberta,Northwest Territories,59.9996928,-111.9239719,unnamed [service]
Alberta,Northwest Territories,60.0002582,-111.9101002,unnamed [service]
Alberta,Saskatchewan,53.3071121,-110.0010463,67 Street [secondary]
Manitoba,Saskatchewan,52.1296465,-101.6566497,unnamed [unclassified]
Manitoba,Saskatchewan,52.1435914,-101.6606442,unnamed [unclassified]
Manitoba,Saskatchewan,52.1727142,-101.6607334,unnamed [unclassified]
Manitoba,Saskatchewan,52.0852907,-101.6528730,unnamed [unclassified]
Manitoba,Saskatchewan,52.0634883,-101.6528666,unnamed [unclassified]
Manitoba,Saskatchewan,52.0270178,-101.6464908,unnamed [unclassified]
Manitoba,Saskatchewan,52.1144204,-101.6539214,753 [tertiary]
Manitoba,Ontario,49.5034756,-95.1579878,unnamed [track]
Manitoba,Ontario,49.4230508,-95.1634248,unnamed [track]
Manitoba,Ontario,49.3898601,-95.1620902,unnamed [residential]
Ontario,Québec,47.5932336,-79.5135086,Rue Ontario [primary]
Ontario,Québec,45.5168470,-76.2296732,Rue McCann [residential]
Ontario,Québec,45.4740462,-76.3253625,Chemin de Pontiac-Station [unclassified]
Ontario,Québec,45.5180818,-76.2285814,unnamed [service]
Ontario,Québec,46.1880452,-77.6809404,CR 635 [secondary]
Alberta,Saskatchewan,49.2402389,-109.9968777,unnamed [track]
Alberta,Saskatchewan,49.1945290,-110.0013281,13 [primary]
Ontario,Québec,45.8875373,-76.9088028,Rapid Road [residential]
Alberta,Saskatchewan,53.4899571,-110.0021900,unnamed [unclassified]
Alberta,Saskatchewan,49.5527103,-109.9965138,unnamed [unclassified]
Alberta,Saskatchewan,49.8731701,-109.9959183,unnamed [unclassified]
Alberta,Saskatchewan,49.7566897,-109.9961107,unnamed [track]
Alberta,Saskatchewan,49.8421501,-109.9987627,unnamed [track]
Alberta,Saskatchewan,49.7930588,-110.0006041,724 [tertiary]
Alberta,Saskatchewan,52.8123645,-110.0021470,unnamed [unclassified]
Manitoba,Saskatchewan,50.7420473,-101.5281991,unnamed [unclassified]
Manitoba,Saskatchewan,50.7273119,-101.5233644,unnamed [unclassified]
Manitoba,Saskatchewan,50.6388970,-101.5176174,22 [primary]
Manitoba,Saskatchewan,50.3584264,-101.4916768,unnamed [unclassified]
Alberta,Saskatchewan,53.2509739,-109.9999612,14 Street [residential]
Alberta,Saskatchewan,53.2496704,-110.0001215,13 Street [residential]
Manitoba,Saskatchewan,50.4469022,-101.5017760,unnamed [unclassified]
Manitoba,Saskatchewan,50.5012853,-101.5049476,unnamed [unclassified]
Manitoba,Saskatchewan,50.7568049,-101.5285896,unnamed [unclassified]
Manitoba,Saskatchewan,49.7392428,-101.4324954,unnamed [secondary]
Manitoba,Saskatchewan,50.9630300,-101.5437502,unnamed [unclassified]
Manitoba,Saskatchewan,50.8893729,-101.5435354,unnamed [unclassified]
Manitoba,Saskatchewan,50.8598929,-101.5359439,unnamed [track]
Ontario,Québec,45.5257993,-76.4522386,Chemin River [tertiary]
British Columbia,Yukon,59.9981784,-136.8522340,Blanchard River Road [residential]
British Columbia,Yukon,60.0018269,-136.8489277,YK 3 [trunk]
Ontario,Québec,45.5595202,-74.3988040,unnamed [service]
Alberta,Saskatchewan,50.9741914,-110.0030785,unnamed [service]
Alberta,Saskatchewan,49.9577834,-110.0001320,1 [trunk]
Ontario,Québec,45.4971686,-76.0141043,Chemin des Pères-Dominicains [unclassified]
Manitoba,Saskatchewan,49.3996218,-101.4036409,unnamed [unclassified]
Manitoba,Saskatchewan,49.2370227,-101.3884728,unnamed [track]
Manitoba,Saskatchewan,49.5327226,-101.4141316,unnamed [unclassified]
Manitoba,Saskatchewan,49.5029767,-101.4139765,unnamed [unclassified]
Alberta,Saskatchewan,49.9500918,-110.0008546,unnamed [unclassified]
Alberta,Saskatchewan,49.9095800,-110.0003585,unnamed [track]
Manitoba,Saskatchewan,49.4585848,-101.4112401,unnamed [track]
Manitoba,Saskatchewan,49.4290860,-101.4059595,unnamed [unclassified]
Manitoba,Saskatchewan,49.7097480,-101.4340259,unnamed [unclassified]
Manitoba,Saskatchewan,49.6065190,-101.4210039,unnamed [unclassified]
Alberta,Saskatchewan,53.5116841,-109.9936955,3 [primary]
Alberta,Saskatchewan,53.6073431,-110.0034214,unnamed [unclassified]
Alberta,Saskatchewan,53.6449975,-109.9986788,unnamed [unclassified]
Alberta,Saskatchewan,53.7434047,-110.0034790,Range Road 10 [unclassified]
Alberta,Saskatchewan,53.7366278,-109.9990021,unnamed [unclassified]
Alberta,Saskatchewan,52.5220110,-110.0021281,unnamed [unclassified]
Alberta,Saskatchewan,53.2793533,-109.9987622,unnamed [service]
Alberta,Saskatchewan,53.2820626,-109.9987681,unnamed [service]
Alberta,Saskatchewan,53.2775565,-109.9996962,unnamed [service]
Alberta,Saskatchewan,53.2720368,-109.9987970,unnamed [service]
Alberta,Saskatchewan,53.2784564,-109.9987560,unnamed [service]
Alberta,Saskatchewan,53.2811598,-109.9987657,unnamed [service]
Alberta,Saskatchewan,53.2829673,-109.9987643,unnamed [service]
Alberta,Saskatchewan,53.2885838,-109.9983433,54 Street [unclassified]
Manitoba,Saskatchewan,49.3403087,-101.3966619,unnamed [unclassified]
Alberta,Saskatchewan,53.1106349,-109.9991388,unnamed [unclassified]
Alberta,Saskatchewan,53.0669566,-110.0008759,unnamed [unclassified]
Alberta,Saskatchewan,53.1324901,-110.0022734,Township 482 Road [unclassified]
Alberta,Saskatchewan,53.2053419,-110.0010443,unnamed [unclassified]
Manitoba,Saskatchewan,49.3254984,-101.3952332,unnamed [track]
Alberta,Saskatchewan,53.6632281,-109.9985678,unnamed [unclassified]
Ontario,Québec,45.6040314,-76.6601239,Chemin des Outaouais [unclassified]
Alberta,Northwest Territories,60.0002339,-111.9019114,unnamed [service]
Alberta,Northwest Territories,60.0004003,-111.8619516,Paddle Street [residential]
Alberta,Northwest Territories,59.9998557,-111.8497002,unnamed [residential]
Alberta,Northwest Territories,59.9998736,-111.8483884,Carl's Drive [residential]
Ontario,Québec,45.5908880,-76.6546445,unnamed [service]
Manitoba,Saskatchewan,49.6949692,-101.4275484,unnamed [track]
Alberta,Northwest Territories,60.0004404,-111.9243097,unnamed [track]
Alberta,Northwest Territories,60.0002069,-111.9186650,unnamed [track]
Manitoba,Saskatchewan,50.1816195,-101.4754254,unnamed [unclassified]
Alberta,Northwest Territories,60.0004677,-111.9046578,5 [primary]
Alberta,Northwest Territories,59.9990270,-112.1905017,unnamed [track]
Manitoba,Saskatchewan,49.1182343,-101.3775487,Township Road 22 [unclassified]
Manitoba,Saskatchewan,49.0146543,-101.3653135,Township Road 11 [track]
Manitoba,Saskatchewan,50.7715439,-101.5309739,unnamed [unclassified]
Manitoba,Saskatchewan,50.6830904,-101.5234704,unnamed [unclassified]
Manitoba,Saskatchewan,50.7126101,-101.5228664,unnamed [track]
Ontario,Québec,45.6588190,-76.6963988,Chemin de la Baie [residential]
Manitoba,Saskatchewan,50.5206867,-101.5068909,unnamed [unclassified]
Alberta,Saskatchewan,54.3405965,-110.0018322,55 [primary]
Alberta,Saskatchewan,50.9418950,-109.9996631,unnamed [unclassified]
Alberta,Saskatchewan,50.9473729,-109.9996828,unnamed [unclassified]
Alberta,Saskatchewan,50.9260493,-110.0010364,Empress VOR Access Road [unclassified]
Alberta,Saskatchewan,50.9123662,-110.0027955,unnamed [unclassified]
Alberta,Saskatchewan,50.8048369,-109.9957990,unnamed [unclassified]
Alberta,Saskatchewan,50.9502696,-110.0019741,unnamed [unclassified]
Alberta,Saskatchewan,50.9568136,-109.9979961,unnamed [track]
Alberta,Saskatchewan,50.9211208,-109.9960229,unnamed [unclassified]
Alberta,Saskatchewan,50.8776761,-109.9975679,unnamed [track]
Alberta,Saskatchewan,50.9116330,-110.0020861,unnamed [unclassified]
Alberta,Saskatchewan,50.8193851,-109.9959301,unnamed [track]
Alberta,Saskatchewan,50.6301863,-109.9958621,unnamed [unclassified]
Alberta,Saskatchewan,50.5719579,-109.9995642,unnamed [track]
Alberta,Saskatchewan,50.5139692,-109.9980998,unnamed [unclassified]
Alberta,Saskatchewan,50.6884357,-109.9958229,unnamed [unclassified]
Alberta,Saskatchewan,50.6010462,-109.9958546,unnamed [track]
Alberta,Saskatchewan,50.5431140,-109.9981045,unnamed [unclassified]
Alberta,Saskatchewan,50.6592164,-110.0020611,321 [secondary]
Alberta,Saskatchewan,49.9291544,-109.9994693,unnamed [unclassified]
Alberta,Saskatchewan,49.9751393,-109.9956555,unnamed [unclassified]
Alberta,Saskatchewan,49.9013008,-109.9965342,unnamed [unclassified]
Alberta,Saskatchewan,50.1694512,-109.9999378,unnamed [unclassified]
Alberta,Saskatchewan,50.1403989,-109.9966337,unnamed [unclassified]
Alberta,Saskatchewan,50.2226816,-109.9980611,unnamed [unclassified]
Alberta,Saskatchewan,50.0770266,-109.9967045,unnamed [unclassified]
Alberta,Saskatchewan,50.0973197,-109.9967449,unnamed [unclassified]
Alberta,Saskatchewan,50.3391905,-109.9980738,unnamed [unclassified]
Alberta,Saskatchewan,50.3100869,-109.9980837,unnamed [unclassified]
Alberta,Saskatchewan,50.3682991,-109.9980885,unnamed [unclassified]
Alberta,Saskatchewan,50.4264484,-110.0020940,371 [secondary]
Alberta,Saskatchewan,50.4848432,-109.9980967,unnamed [unclassified]
Alberta,Saskatchewan,50.3973834,-109.9987577,unnamed [track]
Alberta,Saskatchewan,50.2809733,-109.9980761,unnamed [unclassified]
Alberta,Saskatchewan,50.4557000,-109.9980895,unnamed [unclassified]
Alberta,Saskatchewan,51.7652832,-109.9993705,unnamed [tertiary]
Alberta,Saskatchewan,51.9978923,-109.9985930,unnamed [unclassified]
Alberta,Saskatchewan,51.8234661,-109.9994085,unnamed [unclassified]
Alberta,Saskatchewan,51.8888439,-109.9995560,unnamed [track]
Alberta,Saskatchewan,51.8062756,-109.9993749,unnamed [track]
Alberta,Saskatchewan,51.7992176,-109.9993886,unnamed [track]
Alberta,Saskatchewan,51.8742370,-109.9992186,unnamed [unclassified]
Alberta,Saskatchewan,51.8526313,-109.9993491,51 [primary]
Alberta,Saskatchewan,52.0779436,-109.9964160,unnamed [track]
Alberta,Saskatchewan,52.1893632,-109.9962236,unnamed [track]
Alberta,Saskatchewan,52.2017666,-109.9946577,unnamed [unclassified]
Alberta,Saskatchewan,52.1726556,-109.9998803,unnamed [unclassified]
Alberta,Saskatchewan,52.0999816,-110.0004244,unnamed [unclassified]
Alberta,Saskatchewan,52.1436506,-109.9946316,unnamed [unclassified]
Alberta,Saskatchewan,52.2308386,-109.9946459,unnamed [unclassified]
Alberta,Saskatchewan,52.0562101,-109.9951091,unnamed [unclassified]
Alberta,Saskatchewan,52.1139659,-110.0017977,771 [tertiary]
Alberta,Saskatchewan,52.4049582,-109.9995867,unnamed [unclassified]
Alberta,Saskatchewan,52.4923077,-109.9959343,unnamed [unclassified]
Alberta,Saskatchewan,52.4631998,-109.9994934,unnamed [unclassified]
Alberta,Saskatchewan,52.4528484,-109.9997411,unnamed [unclassified]
Alberta,Saskatchewan,52.2887744,-110.0006348,unnamed [unclassified]
Alberta,Saskatchewan,52.3467556,-109.9996874,unnamed [unclassified]
Alberta,Saskatchewan,52.3758197,-109.9996630,unnamed [unclassified]
Alberta,Saskatchewan,52.2599566,-110.0007315,unnamed [unclassified]
Alberta,Saskatchewan,52.3181973,-109.9963462,unnamed [unclassified]
Alberta,Saskatchewan,51.6488807,-109.9993697,unnamed [unclassified]
Alberta,Saskatchewan,51.5616921,-110.0008502,unnamed [unclassified]
Alberta,Saskatchewan,51.7071045,-109.9994901,unnamed [unclassified]
Alberta,Saskatchewan,51.5907893,-110.0008576,unnamed [unclassified]
Alberta,Saskatchewan,51.6199046,-109.9955859,unnamed [unclassified]
Alberta,Saskatchewan,51.5325707,-110.0016692,unnamed [unclassified]
Alberta,Saskatchewan,51.6632427,-109.9991304,unnamed [unclassified]
Alberta,Saskatchewan,51.3739286,-109.9971687,Railway Avenue [tertiary]
Alberta,Saskatchewan,51.4015552,-109.9971689,unnamed [track]
Alberta,Saskatchewan,51.3579626,-109.9980246,unnamed [track]
Alberta,Saskatchewan,51.4452590,-109.9971542,unnamed [unclassified]
Alberta,Saskatchewan,51.3866993,-109.9991996,unnamed [track]
Alberta,Saskatchewan,51.4797792,-109.9990522,unnamed [unclassified]
Alberta,Saskatchewan,51.3730880,-109.9971743,unnamed [track]
Alberta,Saskatchewan,51.2996385,-110.0010477,unnamed [unclassified]
Alberta,Saskatchewan,51.4160987,-110.0016995,unnamed [unclassified]
Alberta,Saskatchewan,51.1250894,-109.9952124,unnamed [unclassified]
Alberta,Saskatchewan,51.2123473,-110.0010436,unnamed [unclassified]
Alberta,Saskatchewan,51.0958947,-110.0011112,unnamed [unclassified]
Alberta,Saskatchewan,51.1032590,-110.0018591,unnamed [unclassified]
Alberta,Saskatchewan,51.0668080,-110.0025467,unnamed [unclassified]
Alberta,Saskatchewan,49.7421616,-110.0015378,unnamed [unclassified]
Alberta,Saskatchewan,49.7469227,-109.9964827,unnamed [unclassified]
Manitoba,Saskatchewan,49.6507438,-101.4265277,unnamed [unclassified]
Manitoba,Saskatchewan,50.6978580,-101.5204362,unnamed [unclassified]
Manitoba,Saskatchewan,50.5095866,-101.5032365,unnamed [track]
Manitoba,Saskatchewan,50.8157183,-101.5344131,unnamed [unclassified]
Alberta,Saskatchewan,49.7180427,-110.0013499,unnamed [unclassified]
Manitoba,Saskatchewan,52.3813454,-101.6824190,unnamed [unclassified]
Manitoba,Saskatchewan,52.3128277,-101.6763978,980 [secondary]
Manitoba,Saskatchewan,52.4996676,-101.6917675,unnamed [unclassified]
Manitoba,Saskatchewan,52.8316148,-101.7236824,3 [primary]
Manitoba,Saskatchewan,52.7834428,-101.7210616,unnamed [unclassified]
Manitoba,Saskatchewan,52.9766601,-101.7375109,unnamed [track]
Manitoba,Ontario,50.4708180,-95.1576458,unnamed [track]
Alberta,Northwest Territories,60.0011818,-111.8966919,King Street [secondary]
Alberta,Northwest Territories,60.0014286,-112.4894244,unnamed [unclassified]
Alberta,Saskatchewan,53.7626875,-109.9994619,unnamed [unclassified]
Alberta,Saskatchewan,53.9035496,-109.9968398,unnamed [track]
Alberta,Saskatchewan,53.9118774,-109.9974811,unnamed [track]
Alberta,Saskatchewan,53.7683820,-109.9998905,unnamed [unclassified]
Alberta,Saskatchewan,53.7690425,-109.9998456,unnamed [unclassified]
Alberta,Saskatchewan,53.8528525,-110.0007200,unnamed [track]
Alberta,Saskatchewan,53.7886683,-109.9993649,unnamed [unclassified]
Alberta,Saskatchewan,53.7905193,-109.9992853,unnamed [unclassified]
Alberta,Saskatchewan,54.1956741,-109.9972186,unnamed [track]
Alberta,Saskatchewan,54.4072667,-110.0024450,Deer Trail [unclassified]
Alberta,Saskatchewan,54.2822492,-110.0020549,unnamed [unclassified]
Northwest Territories,Yukon,67.0499058,-136.2058742,YK 5 [primary]
Alberta,Northwest Territories,60.0021112,-116.9810185,1 [trunk]
Alberta,Northwest Territories,60.0010378,-112.5827269,5 [primary]
Alberta,Northwest Territories,60.0008435,-112.5593552,5 [primary]
Alberta,Northwest Territories,60.0007381,-112.6513194,5 [primary]
Alberta,Northwest Territories,60.0006546,-112.5214806,5 [primary]
British Columbia,Yukon,60.0008706,-127.6754254,BC 97 [trunk]
British Columbia,Yukon,60.0011470,-127.6861857,BC 97 [trunk]
British Columbia,Yukon,60.0004376,-127.8650166,BC 97 [trunk]
British Columbia,Yukon,60.0013864,-127.9292536,BC 97 [trunk]
British Columbia,Northwest Territories,60.0001172,-122.9329390,7 [primary]
Ontario,Québec,45.3895581,-75.8234207,Chemin Fraser [tertiary]
New Brunswick,Québec,47.4857661,-68.4879873,85 [motorway]
Ontario,Québec,45.3876531,-75.8364702,Boulevard de Lucerne [secondary]
Ontario,Québec,45.3871452,-75.8409896,Rue Lake [residential]
Ontario,Québec,45.3871063,-75.8367568,Rue Pine [residential]
Alberta,British Columbia,55.7792044,-119.9989261,49 [primary]
Ontario,Québec,45.5876518,-76.6553190,Chemin Armitage [unclassified]
Ontario,Québec,45.7318072,-76.7278138,Chemin du Rocher-Fendu [residential]
Alberta,Northwest Territories,60.0009914,-111.8810760,Breynat Street [tertiary]
Ontario,Québec,46.7117592,-79.1003006,101 [primary]
Ontario,Québec,45.3929194,-75.7958814,Rue Félix-Leclerc [residential]
Ontario,Québec,45.3911530,-75.7967151,Rue Félix-Leclerc [residential]
Alberta,Saskatchewan,56.2821773,-110.0016036,956 [tertiary]
Newfoundland and Labrador,Québec,51.4204587,-57.0984955,510 [trunk]
Alberta,Saskatchewan,52.8415707,-109.9996484,40 [primary]
Manitoba,Ontario,49.3689581,-95.1582695,unnamed [track]
Manitoba,Ontario,50.4582618,-95.1562764,PR 315 [secondary]
Manitoba,Saskatchewan,50.3289271,-101.4869795,308 [secondary]
Manitoba,Saskatchewan,49.3848504,-101.4016995,361 [secondary]
Manitoba,Saskatchewan,50.9485356,-101.5479558,723 [tertiary]
Manitoba,Saskatchewan,51.4049887,-101.5891945,357 [secondary]
Ontario,Québec,45.4472705,-75.7163067,unnamed [service]
Ontario,Québec,45.4488111,-75.7148464,unnamed [service]
Ontario,Québec,45.4480636,-75.7147793,unnamed [service]
British Columbia,Yukon,60.0003330,-129.0523419,YK 37 [primary]
Ontario,Québec,45.5314858,-75.4119503,Chemin du Quai [tertiary]
Ontario,Québec,45.8193209,-77.0819032,unnamed [service]
Ontario,Québec,45.4458071,-75.7177298,unnamed [service]
Ontario,Québec,45.6178059,-75.0033201,148 [primary]
Ontario,Québec,45.6161961,-75.0068379,148 [primary]
Ontario,Québec,46.0063485,-77.2928479,unnamed [track]
Ontario,Québec,46.1636097,-77.6036290,unnamed [service]
Northwest Territories,Yukon,66.4439063,-133.7187114,unnamed [track]
Northwest Territories,Yukon,66.4898442,-133.6807446,unnamed [track]
Alberta,Saskatchewan,50.2517503,-110.0021689,728 [secondary]
Ontario,Québec,45.5800604,-75.2459975,Onesime Guibord Road [tertiary]
Alberta,Saskatchewan,51.2705528,-109.9999698,570 [secondary]
Ontario,Québec,45.7548387,-76.7649849,Parc du Rocher Fendu [unclassified]
Ontario,Québec,48.1892999,-79.5213290,unnamed [track]
Ontario,Québec,45.4067568,-74.4447953,Chemin Concession 9 Road [tertiary]
Ontario,Québec,48.8631613,-79.5214397,La Reine Road [residential]
Ontario,Québec,48.9519525,-79.5202755,Translimit Road [residential]
Ontario,Québec,45.5519681,-76.5820300,Chemin Snow [residential]
Ontario,Québec,49.5404958,-79.5192273,unnamed [track]
Ontario,Québec,49.5467807,-79.5211621,unnamed [track]
Ontario,Québec,49.5231964,-79.5171044,unnamed [track]
Ontario,Québec,49.5162745,-79.5207553,unnamed [track]
Ontario,Québec,49.5492278,-79.5212034,unnamed [track]
Ontario,Québec,49.5461393,-79.5211037,unnamed [track]
Ontario,Québec,49.7065183,-79.5216314,unnamed [track]
Ontario,Québec,49.7000754,-79.5219766,unnamed [track]
Ontario,Québec,45.4341478,-75.7298295,unnamed [service]
Alberta,Saskatchewan,53.3248427,-109.9994268,unnamed [service]
Alberta,Saskatchewan,53.3242069,-109.9991235,unnamed [service]
Alberta,Saskatchewan,53.3218160,-110.0005225,unnamed [service]
Alberta,Saskatchewan,53.3269593,-109.9990947,Robert Drive [residential]
Alberta,Saskatchewan,53.3254865,-110.0001987,unnamed [service]
Alberta,Saskatchewan,53.3263109,-110.0000132,unnamed [service]
Ontario,Québec,45.4606888,-75.6985144,Rue Saint-Antoine [residential]
Alberta,Saskatchewan,53.8250157,-109.9991949,unnamed [track]
Alberta,Saskatchewan,53.8326828,-109.9986726,unnamed [track]
Alberta,Saskatchewan,53.8101166,-110.0011342,unnamed [track]
Alberta,Saskatchewan,53.8288195,-110.0003096,unnamed [track]
Alberta,Saskatchewan,53.8148779,-110.0024174,unnamed [unclassified]
Alberta,Saskatchewan,53.8039933,-109.9999352,unnamed [track]
Alberta,Saskatchewan,53.7924467,-109.9957918,unnamed [track]
Alberta,Saskatchewan,53.7824389,-109.9988367,unnamed [track]
Alberta,Saskatchewan,53.2330724,-110.0016653,unnamed [service]
Alberta,Saskatchewan,53.2284162,-110.0007870,unnamed [service]
Alberta,Saskatchewan,53.2308140,-110.0012726,unnamed [service]
Ontario,Québec,46.3684526,-78.7316222,Mount Antoine Road [service]
Ontario,Québec,45.4615027,-75.6960338,unnamed [service]
Ontario,Québec,45.6534990,-74.6387516,unnamed [track]
Ontario,Québec,45.6554558,-74.6556222,Chemin Welden [residential]
Alberta,British Columbia,57.3156916,-119.9989864,unnamed [unclassified]
Ontario,Québec,45.4228020,-75.7390052,Boulevard Alexandre-Taché [secondary]
Alberta,Saskatchewan,53.2743017,-109.9989744,40 Street [residential]
Ontario,Québec,45.4462269,-74.4330715,Chemin Clermont Road [unclassified]
Ontario,Québec,45.6209049,-74.5748069,Rue Baillargeon [residential]
Ontario,Québec,45.6521694,-74.6346640,148 [primary]
Newfoundland and Labrador,Québec,54.8698101,-66.6589514,unnamed [unclassified]
Newfoundland and Labrador,Québec,54.7495348,-66.7025314,unnamed [track]
Newfoundland and Labrador,Québec,54.7600553,-66.8132422,unnamed [unclassified]
Manitoba,Ontario,49.6127593,-95.1545918,Freedom Road [tertiary]
Alberta,British Columbia,54.6693411,-120.0002562,unnamed [unclassified]
Alberta,British Columbia,54.6806776,-119.9995621,unnamed [unclassified]
Ontario,Québec,45.6284674,-74.5895342,344 [primary]
Ontario,Québec,45.6516106,-74.6317300,unnamed [service]
Alberta,British Columbia,57.3565443,-120.0007130,unnamed [track]
Alberta,British Columbia,57.3994620,-120.0014714,unnamed [track]
Alberta,British Columbia,56.5127306,-119.9986402,unnamed [unclassified]
New Brunswick,Québec,47.8885141,-67.2135151,Rang de l'Église Sud [track]
New Brunswick,Québec,47.8885383,-67.2075218,Rang de l'Église Sud [track]
New Brunswick,Québec,47.8869715,-67.1875013,Rang de l'Église Sud [track]
New Brunswick,Québec,47.4278660,-68.5731483,Route de Val-Lambert [track]
New Brunswick,Québec,47.4037752,-68.6451202,8e-et-9e Rang Sud [unclassified]
New Brunswick,Nova Scotia,45.8552499,-64.2612054,NS 104;TCH [motorway]
Alberta,British Columbia,54.1292909,-120.0003826,Deadhorse Meadows Tote Trail [track]
Alberta,Saskatchewan,53.8430277,-109.9995589,unnamed [track]
Manitoba,Saskatchewan,57.0848165,-101.9974985,PR 394 [secondary]
Ontario,Québec,45.8188156,-77.0809664,unnamed [service]
Alberta,British Columbia,49.0355662,-114.0394431,Akamina Parkway [tertiary]
Ontario,Québec,45.3534425,-74.4657024,unnamed [service]
Alberta,British Columbia,49.9638371,-114.6722287,unnamed [track]
Alberta,Saskatchewan,53.2518997,-109.9990742,unnamed [service]
Ontario,Québec,45.8164605,-77.0759693,148 [primary]
Ontario,Québec,46.1694923,-77.6182383,unnamed [service]
Ontario,Québec,46.1698032,-77.6193533,unnamed [service]
Ontario,Québec,46.1861568,-77.6656559,unnamed [track]
Ontario,Québec,46.1827289,-77.6563257,unnamed [track]
Ontario,Québec,46.1841890,-77.6573936,unnamed [track]
Ontario,Québec,46.1841534,-77.6589373,unnamed [track]
Ontario,Québec,46.1664673,-77.6081243,unnamed [service]
Ontario,Québec,46.1670350,-77.6091942,unnamed [service]
Ontario,Québec,46.1656193,-77.6043821,unnamed [service]
Ontario,Québec,46.1670412,-77.6125682,Myrlin Way [service]
Ontario,Québec,46.1671616,-77.6135713,unnamed [service]
Ontario,Québec,46.1679595,-77.6145386,Pinecrest Road [service]
Ontario,Québec,46.1642064,-77.6040717,unnamed [service]
Ontario,Québec,46.1599473,-77.5873152,Rittermere Road [residential]
Ontario,Québec,46.1600021,-77.5928220,Fraser View Lane [residential]
Ontario,Québec,46.1604278,-77.5933335,unnamed [service]
Ontario,Québec,46.1616007,-77.5959888,unnamed [service]
Ontario,Québec,46.1598239,-77.5889585,unnamed [service]
Ontario,Québec,46.1529484,-77.5755361,Frasers Road [residential]
Ontario,Québec,46.1567765,-77.5846995,unnamed [track]
Ontario,Québec,46.1573385,-77.5827639,unnamed [track]
Ontario,Québec,46.1501148,-77.5677370,unnamed [service]
Alberta,Saskatchewan,53.2711348,-109.9989828,unnamed [service]
Alberta,British Columbia,57.7416693,-119.9994336,unnamed [unclassified]
Alberta,Saskatchewan,53.2536404,-109.9992575,18 Street [tertiary]
Ontario,Québec,45.6491299,-74.6278949,Rue Principale [tertiary]
Ontario,Québec,45.6482580,-74.6231863,unnamed [service]
Manitoba,Saskatchewan,49.5770348,-101.4211528,13 [primary]
Alberta,Saskatchewan,53.2834276,-109.9996992,50 Street [tertiary]
Ontario,Québec,45.5419600,-74.4007356,417 [motorway]
Ontario,Québec,45.6021821,-76.6576664,301 [secondary]
Alberta,Saskatchewan,53.2553259,-109.9991566,20 Street [residential]
Ontario,Québec,45.4922637,-76.3806104,Chemin de Knox Landing [track]
Ontario,Québec,45.6356220,-74.8678894,CR 24 [secondary]
New Brunswick,Prince Edward Island,46.1915229,-63.7772032,NB 16;TCH [trunk]
Ontario,Québec,46.8416146,-79.1879676,Chemin Jodoin [track]
Ontario,Québec,46.1798942,-77.6467964,Cutler Lane [residential]
Ontario,Québec,46.1753750,-77.6351222,River Pines Lane [unclassified]
Ontario,Québec,46.1778658,-77.6393772,unnamed [track]
Ontario,Québec,46.1758285,-77.6361897,unnamed [track]
Ontario,Québec,46.1765116,-77.6380987,unnamed [track]
Manitoba,Saskatchewan,52.4579803,-101.6881293,980 [secondary]
Northwest Territories,Yukon,63.2686241,-130.0563703,unnamed [unclassified]
Northwest Territories,Yukon,63.2683239,-130.0850263,unnamed [unclassified]
Northwest Territories,Yukon,63.2816812,-130.1469589,unnamed [unclassified]
Northwest Territories,Yukon,63.2496719,-130.0238733,Canol Road [tertiary]
Alberta,British Columbia,58.6230128,-119.9972116,unnamed [tertiary]
Ontario,Québec,45.5985568,-74.4992689,unnamed [track]
Ontario,Québec,48.0771217,-79.5201228,unnamed [track]
Ontario,Québec,48.0970650,-79.5218492,Raven Mountain Road [service]
Ontario,Québec,48.1022572,-79.5215788,Raven Mountain Road [service]
Ontario,Québec,48.1134453,-79.5202291,Raven Mountain Road [service]
Ontario,Québec,48.1182694,-79.5213815,Raven Mountain Road [service]
Ontario,Québec,45.6212724,-74.9974383,Chemin Asa Cooke [residential]
Ontario,Québec,45.5800829,-74.4103150,344 [secondary]
Ontario,Québec,45.6412070,-74.7121543,unnamed [service]
New Brunswick,Québec,47.9812230,-66.9209449,NB 11 [primary]
Ontario,Québec,45.8179832,-77.0792358,unnamed [service]
Ontario,Québec,45.8203929,-77.0858083,unnamed [service]
Ontario,Québec,45.8198979,-77.0851897,unnamed [service]
Ontario,Québec,45.8185126,-77.0795250,unnamed [service]
Ontario,Québec,45.8184485,-77.0803796,unnamed [service]
Ontario,Québec,45.6016333,-74.5199742,unnamed [service]
Alberta,British Columbia,49.2625211,-114.4064644,unnamed [track]
Newfoundland and Labrador,Québec,52.8504684,-67.2411662,unnamed [track]
Newfoundland and Labrador,Québec,52.8430784,-67.2323341,unnamed [track]
Newfoundland and Labrador,Québec,52.8407716,-67.2267806,unnamed [track]
Newfoundland and Labrador,Québec,52.8536520,-67.2518043,unnamed [unclassified]
Newfoundland and Labrador,Québec,52.8483623,-67.2412321,unnamed [unclassified]
Newfoundland and Labrador,Québec,52.8532168,-67.2479756,unnamed [service]
Newfoundland and Labrador,Québec,52.8513437,-67.2464059,unnamed [service]
Newfoundland and Labrador,Québec,52.8542592,-67.2493491,unnamed [service]
Newfoundland and Labrador,Québec,52.8250980,-67.2010690,unnamed [unclassified]
Newfoundland and Labrador,Québec,52.8399136,-67.2268688,unnamed [unclassified]
Alberta,British Columbia,49.6311794,-114.6955427,unnamed [service]
Alberta,British Columbia,49.3734386,-114.5385594,unnamed [track]
Ontario,Québec,45.8246860,-77.0985304,unnamed [service]
Ontario,Québec,45.8259655,-77.1012898,unnamed [service]
Ontario,Québec,45.8287682,-77.1091762,unnamed [service]
Northwest Territories,Yukon,62.4620343,-129.2107639,unnamed [service]
Alberta,Saskatchewan,53.2569206,-110.0012323,22 Street [residential]
Alberta,Saskatchewan,53.2630542,-109.9998712,28 Street [residential]
Alberta,British Columbia,56.6730224,-120.0011887,unnamed [unclassified]
Alberta,British Columbia,56.6811832,-119.9993708,unnamed [unclassified]
Ontario,Québec,45.5971788,-74.5018760,unnamed [service]
Ontario,Québec,45.5973978,-74.4988919,unnamed [service]
Ontario,Québec,45.6368864,-74.9413026,unnamed [service]
Ontario,Québec,45.6335307,-74.8050894,unnamed [service]
Ontario,Québec,45.6335375,-74.8099132,unnamed [service]
Ontario,Québec,45.6326042,-74.8698270,unnamed [track]
Ontario,Québec,45.6351572,-74.8674403,unnamed [service]
Ontario,Québec,45.6363308,-74.9220738,unnamed [service]
Ontario,Québec,45.6366129,-74.9250761,unnamed [track]
Alberta,British Columbia,49.6464055,-114.6775293,unnamed [track]
Alberta,British Columbia,49.7044081,-114.6585636,Deadmans Pass Trail [track]
Alberta,British Columbia,49.7953507,-114.6266484,unnamed [track]
Alberta,British Columbia,49.7961786,-114.6244595,unnamed [track]
Alberta,British Columbia,50.1153469,-114.7188663,unnamed [track]
Alberta,British Columbia,49.7033606,-114.6599388,unnamed [track]
Ontario,Québec,45.3043419,-74.4620246,unnamed [service]
Ontario,Québec,45.3047601,-74.4615235,Chemin de Dalhousie [secondary]
Ontario,Québec,45.3095420,-74.4676101,unnamed [service]
Alberta,British Columbia,51.4526895,-116.2963716,1 [trunk]
Ontario,Québec,48.1608094,-79.5195106,Fred Francoeur Lane [unclassified]
Ontario,Québec,48.1595701,-79.5222376,unnamed [track]
Ontario,Québec,48.1526121,-79.5198963,unnamed [track]
Ontario,Québec,48.1488879,-79.5219747,unnamed [track]
Ontario,Québec,48.1746058,-79.5222040,unnamed [track]
Ontario,Québec,48.1701444,-79.5206435,unnamed [track]
Ontario,Québec,48.1672490,-79.5195269,unnamed [track]
Ontario,Québec,48.1905752,-79.5213373,unnamed [track]
Ontario,Québec,48.1990550,-79.5196068,unnamed [track]
Ontario,Québec,48.2454020,-79.5181300,Chemin Morganston [unclassified]
Alberta,British Columbia,49.3982337,-114.5813497,unnamed [track]
Alberta,British Columbia,49.3974716,-114.5797289,unnamed [track]
New Brunswick,Québec,47.3638255,-68.7634296,unnamed [track]
Northwest Territories,Yukon,60.0521884,-124.0168627,unnamed [track]
Northwest Territories,Yukon,60.0335789,-123.9209146,unnamed [track]
Alberta,Northwest Territories,59.9992522,-112.6475573,unnamed [track]
Alberta,Northwest Territories,59.9992791,-112.3689266,unnamed [track]
British Columbia,Yukon,59.9996815,-137.1155156,Squaw Creek Mining Road [track]
Ontario,Québec,48.1666041,-79.5222463,Cheminis Road [unclassified]
Ontario,Québec,48.2116912,-79.5180089,Chemin Morganston [unclassified]
Ontario,Québec,46.9025045,-79.2616771,Chemin de la Pointe-McMartin [unclassified]
Northwest Territories,Yukon,62.0203307,-128.3947602,YK 10 [secondary]
Manitoba,Ontario,55.8132068,-90.5904792,Fort Severn to Shamattawa Winter road [unclassified]
Ontario,Québec,45.6168332,-75.0053711,unnamed [service]
Manitoba,Saskatchewan,50.8327365,-101.5378915,unnamed [service]
Newfoundland and Labrador,Québec,52.8665502,-67.0629648,unnamed [track]
Newfoundland and Labrador,Québec,52.8648295,-67.0567493,Club de motoneige Les Lagopèdes de Fermont [track]
Newfoundland and Labrador,Québec,52.8935106,-67.3273758,unnamed [track]
Newfoundland and Labrador,Québec,52.8193711,-67.1766909,unnamed [track]
New Brunswick,Québec,47.8934227,-67.2299074,Rang de l'Église Sud [unclassified]
New Brunswick,Québec,47.8913032,-67.2245511,Rang de l'Église Sud [unclassified]
Ontario,Québec,46.2641680,-78.2962788,R0834 [unclassified]
Newfoundland and Labrador,Québec,52.8672055,-67.1111210,500 [trunk]
New Brunswick,Québec,47.3482027,-68.8150137,unnamed [track]
Ontario,Québec,45.2313481,-74.3637939,Chemin Sainte-Claire [tertiary]
Ontario,Québec,47.3793118,-79.5401107,unnamed [track]
Alberta,British Columbia,55.1226840,-119.9990460,unnamed [unclassified]
Alberta,British Columbia,55.0171766,-119.9970371,unnamed [unclassified]
Manitoba,Ontario,49.7722255,-95.1555313,Bell's Road [residential]
Manitoba,Saskatchewan,54.7605507,-101.8991675,unnamed [track]
Manitoba,Saskatchewan,54.7886537,-101.9073984,unnamed [track]
Manitoba,Saskatchewan,54.7727301,-101.9035712,unnamed [track]
Ontario,Québec,46.9005045,-79.2634778,unnamed [service]
Manitoba,Saskatchewan,54.8464266,-101.9131933,unnamed [tertiary]
Ontario,Québec,45.8270129,-77.1081810,148 [primary]
British Columbia,Yukon,60.0007343,-130.2491882,unnamed [service]
Alberta,Saskatchewan,53.2874626,-109.9993469,unnamed [service]
Alberta,Saskatchewan,53.2825290,-110.0013328,49 Street [residential]
Ontario,Québec,46.7236782,-79.1075565,unnamed [track]
Ontario,Québec,46.7274630,-79.1082894,unnamed [track]
Ontario,Québec,45.5260073,-75.4297343,Chemin de la Rive [unclassified]
Alberta,Saskatchewan,53.2489127,-110.0013938,12 Street [secondary]
Alberta,Saskatchewan,51.3869656,-110.0010703,7 [trunk]
Alberta,Saskatchewan,53.3280299,-109.9999196,unnamed [service]
Alberta,Saskatchewan,53.7149161,-109.9998910,unnamed [service]
Alberta,Saskatchewan,53.7169866,-110.0001196,unnamed [service]
Ontario,Québec,45.3908171,-75.8036232,Promenade Crescent [residential]
Ontario,Québec,45.3910773,-75.8013809,Promenade Crescent [residential]
Ontario,Québec,45.3897817,-75.8134624,Rue Victor-Beaudry [residential]
Ontario,Québec,45.3880193,-75.8321414,Rue du Languedoc [residential]
Ontario,Québec,45.3869830,-75.8420890,Rue Forest [residential]
Ontario,Québec,45.4306240,-75.7329613,unnamed [service]
Ontario,Québec,45.4773658,-75.6311163,Rue Sabourin [residential]
British Columbia,Yukon,59.9969341,-124.2797599,unnamed [unclassified]
Manitoba,Saskatchewan,51.5673304,-101.6017466,unnamed [track]
Ontario,Québec,45.2989548,-74.4542152,unnamed [service]
New Brunswick,Québec,47.2935166,-69.0613445,unnamed [track]
Alberta,Saskatchewan,50.9729340,-110.0009928,741 [secondary]
Ontario,Québec,45.9094686,-77.2510307,unnamed [service]
Ontario,Québec,45.9086396,-77.2506600,unnamed [service]
Alberta,Saskatchewan,52.3611754,-110.0017910,14 [primary]
Alberta,Saskatchewan,49.6491436,-110.0011910,TCT [unclassified]
Ontario,Québec,45.6142580,-75.0096638,unnamed [service]
Manitoba,Saskatchewan,50.7840016,-101.5287378,16 [trunk]
Ontario,Québec,47.2901548,-79.4562220,Chemin du Vieux-Fort [unclassified]
Ontario,Québec,45.3400938,-74.4716201,unnamed [track]
New Brunswick,Québec,47.9262404,-68.3571823,unnamed [unclassified]
New Brunswick,Québec,47.9282573,-68.2966557,unnamed [track]
New Brunswick,Québec,47.9280554,-68.2913725,unnamed [unclassified]
British Columbia,Yukon,60.0022819,-127.7340682,BC 97 [trunk]
British Columbia,Yukon,60.0019636,-127.8971182,BC 97 [trunk]
British Columbia,Yukon,59.9997851,-131.1939033,YK 1 [trunk]
Ontario,Québec,45.6554295,-74.6599005,Chemin Kilmar [tertiary]
Alberta,British Columbia,58.4262700,-120.0034290,unnamed [tertiary]
Alberta,British Columbia,49.7742786,-114.6298389,Racehorse Pass Trail [track]
Ontario,Québec,45.4834529,-75.5790153,unnamed [service]
Ontario,Québec,45.2960254,-74.4501464,unnamed [service]
Manitoba,Ontario,49.7400068,-95.1551137,former trans canada route [track]
Ontario,Québec,45.4411275,-75.7232517,5 [motorway]